{"status":"success","data":[{"route":["BP002"],"name":"BP 110 Kampung Merdeka,Jalan Kluang","lat":"1.85011224","lng":"102.94092200","type":"Pole"},{"route":["BP002"],"name":"SK Tengku Mariam,Jalan Keembong","lat":"1.84998504","lng":"102.94884510","type":"Pole"},{"route":["BP002"],"name":"Kampung Kaki Bukit,Jalan Keembong","lat":"1.84878043","lng":"102.95271820","type":"Pole"},{"route":["BP002"],"name":"Jalan Perdana","lat":"1.84483536","lng":"102.95380000","type":"Pole"},{"route":["BP002"],"name":"Taman Bukit Perdana,Jalan Perdana Tengah","lat":"1.84212584","lng":"102.95034360","type":"Pole"},{"route":["BP002"],"name":"Taman Kemajuan,Jalan Tanjong Laboh","lat":"1.83956953","lng":"102.94457240","type":"Pole"},{"route":["BP002"],"name":"Taman Tanjung,Jalan Tanjoh Laboh","lat":"1.84287153","lng":"102.94310050","type":"Stop"},{"route":["BP002"],"name":"Sekolah Agama Penggaram,Jalan","lat":"1.84556984","lng":"102.94043880","type":"Stop"},{"route":["BP002"],"name":"SMK (P) Temenggong Ibrahim,Jalan Tanjong Laboh","lat":"1.84629051","lng":"102.93903410","type":"Stop"},{"route":["BP002"],"name":"The Summit Batu Pahat,Jalan Bakau Condong","lat":"1.85774388","lng":"102.93479850","type":"Pole"},{"route":["BP001","BP002"],"name":"Balai Polis Batu Pahat,Jalan Rahmat","lat":"1.84785320","lng":"102.93475450","type":"Stop"},{"route":["BP001"],"name":"Tasik Y,Jalan Zahara","lat":"1.84303799","lng":"102.93482070","type":"Stop"},{"route":["BP001"],"name":"SMK Dato Syed Esa,Jalan Kolam Air","lat":"1.83880194","lng":"102.93834590","type":"Stop"},{"route":["BP001"],"name":"Hospital Sultanah Nora Ismail,Batu Pahat","lat":"1.83669400","lng":"102.94066450","type":"Stop"},{"route":["BP001"],"name":"Taman Soga,Jalan Daun Payung","lat":"1.83693072","lng":"102.93762560","type":"Pole"},{"route":["BP001"],"name":"Taman Soga,Jalan Tukas","lat":"1.83822259","lng":"102.93441910","type":"Pole"},{"route":["BP001"],"name":"Jalan Impian,Jalan Impian","lat":"1.83975282","lng":"102.93096890","type":"Pole"},{"route":["BP001"],"name":"Taman Pantai,Jalan Dato Syed Esa","lat":"1.84251996","lng":"102.92645100","type":"Pole"},{"route":["BP001"],"name":"Pasar Awam Batu Pahat,Jalan Shahbandar","lat":"1.84747960","lng":"102.92474060","type":"Pole"},{"route":["YP001"],"name":"Taman Bahagia,Jalan Yong Peng","lat":"2.00693846","lng":"103.05123460","type":"Stop"},{"route":["YP001"],"name":"ASD","lat":"2.00791955","lng":"103.05489850","type":"Pole"},{"route":["YP001"],"name":"Klinik Pergigian Yong Peng,Jalan Yong Peng","lat":"2.00849855","lng":"103.05551540","type":"Stop"},{"route":["YP001"],"name":"Rumah Komuniti Baitul Islak,Jalan Yong Peng","lat":"2.00835380","lng":"103.05569250","type":"Pole"},{"route":["YP001"],"name":"Klinik Pergigian Yong Peng,Jalan Yong Peng","lat":"2.00726471","lng":"103.05284160","type":"Stop"},{"route":["YP001"],"name":"Kampung Jalan Lama, Jalan Yong Peng","lat":"2.01023214","lng":"103.05795300","type":"Pole"},{"route":["YP001"],"name":"Hentian Bas,Jalan Man Choo","lat":"2.01382656","lng":"103.06119170","type":"Pole"},{"route":["YP001"],"name":"Taman Sembrong Barat,Jalan Besar","lat":"2.01071693","lng":"103.06501890","type":"Stop"},{"route":["YP001"],"name":"Perhentian Bas & Teksi Yong Peng","lat":"2.01287914","lng":"103.07110130","type":"Terminal"},{"route":["YP001"],"name":"Taman Sri Aman,Jalan Damai","lat":"2.01885128","lng":"103.06722450","type":"Stop"},{"route":["YP001"],"name":"SMK Yong Peng,Jalan Ann Low Yean","lat":"2.01981356","lng":"103.06138090","type":"Pole"},{"route":["YP001"],"name":"Sekolah Agama Seri Bertam,Jalan Sekolah Agama","lat":"2.01962190","lng":"103.05926590","type":"Stop"},{"route":["YP001"],"name":"Taman Berlian,Jalna Labis","lat":"2.02266950","lng":"103.05626790","type":"Stop"},{"route":["YP001"],"name":"Klinik Kesihatan Yong Peng,Jalan Yong Peng - Paloh","lat":"2.03076883","lng":"103.05645870","type":"Stop"},{"route":["YP001"],"name":"Taman Muhibbah,Jalan Labis","lat":"2.01933630","lng":"103.05669380","type":"Stop"},{"route":["MU001","MU002","MU003","MU004","MU005"],"name":"Hentian Bas Maharani,Jalan Maharani","lat":"2.04673780","lng":"102.56487520","type":"Terminal"},{"route":["MU002"],"name":"Dewan Jubli Intan Sultan Ibrahim,Jalan Sulaiman","lat":"2.04258137","lng":"102.56754530","type":"Stop"},{"route":["MU002"],"name":"Sekolah Kebangsaan Parit Kadhi,Jalan Temenggong Ahmad","lat":"2.03463713","lng":"102.57527810","type":"Stop"},{"route":["MU002"],"name":"Taman Laksamana,JalanTemenggong Ahmad","lat":"2.03103444","lng":"102.57987530","type":"Pole"},{"route":["MU002"],"name":"Taman Seri Temenggong,Jalan Temenggong Ahmad","lat":"2.02939564","lng":"102.58191580","type":"Stop"},{"route":["MU002"],"name":"Taman Amansari,Jalan Temenggong Ahmad","lat":"2.02238043","lng":"102.59005780","type":"Stop"},{"route":["MU002"],"name":"Taman Amansari,Jalan Temenggong Ahmad","lat":"2.02056864","lng":"102.59227290","type":"Stop"},{"route":["MU002"],"name":"SMK Tengku Mahkota,Jalan Temenggong Ahmad","lat":"2.01128736","lng":"102.59929090","type":"Stop"},{"route":["MU002"],"name":"Taman Junid Perdana,Jalan Junid","lat":"2.02824227","lng":"102.55858960","type":"Pole"},{"route":["MU002"],"name":"SMK (P) Sultan Abu Bakar,Jalan Abdul Rahman","lat":"2.04054826","lng":"102.55825970","type":"Stop"},{"route":["MU002"],"name":"Sekolah Tinggi Chung Hwa,Jalan Junid","lat":"2.04205758","lng":"102.55374170","type":"Pole"},{"route":["MU002"],"name":"SMKA Maahad,Jalan Abdul Rahman","lat":"2.03382405","lng":"102.56589030","type":"Stop"},{"route":["MU002"],"name":"SJK ( C ) Chung Hwa,Jalan Abdul Rahman","lat":"2.03286979","lng":"102.56695780","type":"Stop"},{"route":["MU002"],"name":"Taman Keroma Citra 2,Jalan Abdul Rahman","lat":"2.01743589","lng":"102.58327130","type":"Stop"},{"route":["KL001","KL002","SR004"],"name":"Terminal Pengangkutan Awam Bandar Kluang","lat":"2.03622477","lng":"103.32279170","type":"Terminal"},{"route":["KL002"],"name":"Sekolah Agama Gunung Lambak,Jalan Mersing","lat":"2.03442443","lng":"103.32842690","type":"Stop"},{"route":["KL001","KL002"],"name":"Jalan Mohd Salim","lat":"2.03788706","lng":"103.32528330","type":"Pole"},{"route":["KL001"],"name":"SJK ( C ) Chiao Min,Jalan Revertex","lat":"2.01582364","lng":"103.29599340","type":"Stop"},{"route":["KL001"],"name":"Simpang tiga","lat":"2.01018676","lng":"103.31502370","type":"Pole"},{"route":["KL001"],"name":"Kluang Mall,Jalan Mohd Salim","lat":"2.03919941","lng":"103.32025070","type":"Pole"},{"route":["BP001","BP002"],"name":"Terminal Bas Batu Pahat","lat":"1.85343462","lng":"102.92702670","type":"Terminal"},{"route":["SE001","SE001","SE003"],"name":"Terminal Segamat","lat":"2.50846248","lng":"102.81285920","type":"Terminal"},{"route":["LB001","LB001A","LB002"],"name":"Terminal Bus Labis","lat":"2.38514059","lng":"103.02188750","type":"Terminal"},{"route":["TK001","TK001A"],"name":"Perhentian Bas dan Teksi Tangkak","lat":"2.26826764","lng":"102.54120150","type":"Terminal"},{"route":["TK001"],"name":"Hospital Tangkak","lat":"2.27218769","lng":"102.54700600","type":"Pole"},{"route":["TK001A"],"name":"SJK (C) Chi Ming","lat":"2.27253030","lng":"102.53578430","type":"Pole"},{"route":["LB002"],"name":"Pasar Awam Bekok","lat":"2.29758422","lng":"103.13095070","type":"Stop"},{"route":["LB002"],"name":"SMK Bekok","lat":"2.29538143","lng":"103.12205110","type":"Stop"},{"route":["KL001"],"name":"Taman Kluang Barat,Jalan Yule Catto","lat":"2.01172570","lng":"103.29293110","type":"Stop"},{"route":["P101"],"name":"Terminal Larkin","lat":"1.49496000","lng":"103.74241000","type":"Stop"},{"route":["P101"],"name":"Tahfiz masjid nong chik","lat":"1.46873000","lng":"103.73679000","type":"Stop"},{"route":["P101"],"name":"Yayasan Warisan Johor","lat":"1.46209000","lng":"103.74076000","type":"Stop"},{"route":["P101"],"name":"Hospital Sultanah Aminah","lat":"1.45745000","lng":"103.74675000","type":"Stop"},{"route":["P101"],"name":"Menara MSC Cyberport","lat":"1.46218000","lng":"103.77201000","type":"Stop"},{"route":["P101"],"name":"Bukit Saujana","lat":"1.47292000","lng":"103.74886000","type":"Stop"},{"route":["P101"],"name":"SJK (T) Jalan Yahya Awal (Bus Stop)","lat":"1.47844000","lng":"103.74759000","type":"Stop"},{"route":["P101"],"name":"Wisma Persekutuan JB (Bus Stop)","lat":"1.46078300","lng":"103.75775500","type":"Stop"},{"route":["P101"],"name":"Menara BSN (Bus Stop)","lat":"1.45965700","lng":"103.76208400","type":"Stop"},{"route":["P103","P102"],"name":"PPR sri stulang","lat":"1.49512000","lng":"103.78931000","type":"Stop"},{"route":["P102"],"name":"Flat Stulang Laut","lat":"1.47118000","lng":"103.78119000","type":"Stop"},{"route":["P102"],"name":"KFC Stulang Laut","lat":"1.46705000","lng":"103.77893000","type":"Stop"},{"route":["P102","P103","P106"],"name":"Taman Sri Bayu (petronas)","lat":"1.49715000","lng":"103.78948000","type":"Stop"},{"route":["P102"],"name":"Taman Iskandar (Bus Stop)","lat":"1.49046000","lng":"103.78590000","type":"Stop"},{"route":["P102"],"name":"Tmn. Stulang Laut (Bus Stop)","lat":"1.46948000","lng":"103.78162000","type":"Stop"},{"route":["P102"],"name":"Taman Pelangi (Bus Stop)","lat":"1.47793200","lng":"103.78089400","type":"Stop"},{"route":["P112","P113"],"name":"Kolej Vokasional ERT Azizah","lat":"1.50188000","lng":"103.73541000","type":"Stop"},{"route":["P103"],"name":"Larkin Perdana","lat":"1.50192000","lng":"103.74809000","type":"Stop"},{"route":["P103"],"name":"Giant Tmn Suria","lat":"1.50415000","lng":"103.76138000","type":"Stop"},{"route":["P103"],"name":"Hospital Columbia","lat":"1.50141000","lng":"103.76514000","type":"Stop"},{"route":["P103"],"name":"Midvalley Southkey","lat":"1.50064600","lng":"103.77656400","type":"Stop"},{"route":["P103"],"name":"SK Bakar Batu (Bus Stop)","lat":"1.49736500","lng":"103.78254300","type":"Stop"},{"route":["P103"],"name":"Taman Sentosa (Bus Stop)","lat":"1.49540100","lng":"103.77213700","type":"Stop"},{"route":["P103"],"name":"Caltex Jalan Dewata (Bus Stop)","lat":"1.50051100","lng":"103.74618300","type":"Stop"},{"route":["P104"],"name":"Hab tmn Johor","lat":"1.50889000","lng":"103.68924000","type":"Stop"},{"route":["P104"],"name":"Tmn Tasek","lat":"1.48886000","lng":"103.72759000","type":"Stop"},{"route":["P104"],"name":"SK Bandar UDA 2","lat":"1.49474000","lng":"103.72012000","type":"Stop"},{"route":["P104"],"name":"Angsana","lat":"1.49601000","lng":"103.70766000","type":"Stop"},{"route":["P104"],"name":"Petronas Tmn Cempaka","lat":"1.51662000","lng":"103.70133000","type":"Stop"},{"route":["P104"],"name":"Surau Tmn Cempaka","lat":"1.51716000","lng":"103.69941000","type":"Stop"},{"route":["P104"],"name":"SK Bandar Uda 2 (Bus Stop)","lat":"1.49397700","lng":"103.72103900","type":"Stop"},{"route":["P104"],"name":"Klinik Kesihatan Kempas (Bus Stop)","lat":"1.50768600","lng":"103.70780400","type":"Stop"},{"route":["P104"],"name":"Taman Dahlia (Bus Stop)","lat":"1.51267700","lng":"103.69609200","type":"Stop"},{"route":["P106"],"name":"Hab sri stulang","lat":"1.49516000","lng":"103.78809000","type":"Stop"},{"route":["P106"],"name":"Aeon Permas","lat":"1.49604000","lng":"103.81635000","type":"Stop"},{"route":["P106"],"name":"Tesco Plentong","lat":"1.52077000","lng":"103.81521000","type":"Stop"},{"route":["P106"],"name":"SMK Permas Jaya 2 (Bus Stop)","lat":"1.49422900","lng":"103.81304100","type":"Stop"},{"route":["P106"],"name":"Pasar Awam Johor Jaya (Bus Stop)","lat":"1.54425700","lng":"103.79949400","type":"Stop"},{"route":["P106"],"name":"Jalan Permas Utara (Bus Stop)","lat":"1.51469600","lng":"103.81824600","type":"Stop"},{"route":["P111"],"name":"PPR desa Mutiara","lat":"1.53866000","lng":"103.74812000","type":"Stop"},{"route":["P111"],"name":"SMK Tmn Daya","lat":"1.55258000","lng":"103.75422000","type":"Stop"},{"route":["P111"],"name":"SMK Tmn Daya 3","lat":"1.56494000","lng":"103.76255000","type":"Stop"},{"route":["P111"],"name":"Hospital Sultan Ismail","lat":"1.54603000","lng":"103.78914000","type":"Stop"},{"route":["P111"],"name":"Aeon Tebrau","lat":"1.55176000","lng":"103.79659000","type":"Stop"},{"route":["P111"],"name":"Aeon Dato Onn (Bus Stop)","lat":"1.56290800","lng":"103.73466800","type":"Stop"},{"route":["P111"],"name":"Pusat Perniagaan TD Point (Bus Stop)","lat":"1.56643100","lng":"103.75938300","type":"Stop"},{"route":["P111"],"name":"Shell Jalan Pandan (Bus Stop)","lat":"1.54369300","lng":"103.79193100","type":"Stop"},{"route":["P112"],"name":"Terminal Johor Jaya","lat":"1.54271000","lng":"103.79872000","type":"Stop"},{"route":["P112"],"name":"Tmn Desa Harmoni","lat":"1.51504000","lng":"103.79346000","type":"Stop"},{"route":["P112"],"name":"Maybank Johor Jaya (Bus Stop)","lat":"1.54299400","lng":"103.80440800","type":"Stop"},{"route":["P112"],"name":"Pasar Borong Pandan (Bus Stop)","lat":"1.52332800","lng":"103.76690000","type":"Stop"},{"route":["P112"],"name":"SMK Taman Johor Jaya 1 (Bus Stop)","lat":"1.53671200","lng":"103.79817300","type":"Stop"},{"route":["P112"],"name":"Kuarters Jabatan Perikanan (Bus Stop)","lat":"1.49802300","lng":"103.73718500","type":"Stop"},{"route":["P113"],"name":"Pejabat Pengarah PTG (Bus Stop)","lat":"1.50420200","lng":"103.73446000","type":"Stop"},{"route":["P113"],"name":"Kempas Medical Centre (Bus Stop)","lat":"1.52239400","lng":"103.72558600","type":"Stop"},{"route":["P113"],"name":"Jalan Setia Tropika 1\/25 (Bus stop)","lat":"1.54478600","lng":"103.71290100","type":"Stop"},{"route":["P201"],"name":"U Mall, Tmn Pulai Utama","lat":"1.54722000","lng":"103.62244000","type":"Stop"},{"route":["P201"],"name":"Tmn Pulai Perdana","lat":"1.56112000","lng":"103.61677000","type":"Stop"},{"route":["P201"],"name":"Jalan Teratai, Tmn Teratai","lat":"1.56777000","lng":"103.61303000","type":"Stop"},{"route":["P201"],"name":"Jln Palas 5, Tmn Teratai","lat":"1.57053000","lng":"103.61225000","type":"Stop"},{"route":["P201"],"name":"Tmn Sri Pulai","lat":"1.56858000","lng":"103.61893000","type":"Stop"},{"route":["P201"],"name":"SMK Sri Pulai Perdana (Bus Stop)","lat":"1.55925900","lng":"103.60905200","type":"Stop"},{"route":["P201"],"name":"Taman Sri Pulai (Bus Stop)","lat":"1.56359200","lng":"103.61887000","type":"Stop"},{"route":["P201"],"name":"Taman Pulai Indah (Bus Stop)","lat":"1.54515800","lng":"103.58050300","type":"Stop"},{"route":["P202"],"name":"Tmn Skudai Baru","lat":"1.51010000","lng":"103.64211000","type":"Stop"},{"route":["P202","P213","P214"],"name":"SK Tmn Universiti 4","lat":"1.53440000","lng":"103.62709000","type":"Stop"},{"route":["P202","P213","P214"],"name":"SK Tmn Universiti 4 (tiang 2)","lat":"1.53429000","lng":"103.62717000","type":"Stop"},{"route":["P202"],"name":"Jalan Tun Fatimah, Tmn Ungku Tun Aminah","lat":"1.51664000","lng":"103.65417000","type":"Stop"},{"route":["P202"],"name":"Jalan Tun Aminah, Tmn Ungku Tun Aminah","lat":"1.52248000","lng":"103.66344000","type":"Stop"},{"route":["P202"],"name":"Shell Taman Sri Putri (Bus Stop)","lat":"1.54485700","lng":"103.65730300","type":"Stop"},{"route":["P202"],"name":"SMK Skudai (Bus Stop)","lat":"1.54645300","lng":"103.65407000","type":"Stop"},{"route":["P202"],"name":"Taman Desa Skudai (Bus Stop)","lat":"1.54453000","lng":"103.64399000","type":"Stop"},{"route":["P202"],"name":"Masjid Abidin, Tmn Sri Skudai (Bus Stop)","lat":"1.54306200","lng":"103.65076300","type":"Stop"},{"route":["P203"],"name":"PPR Melana Indah","lat":"1.57105000","lng":"103.80031000","type":"Stop"},{"route":["P203","P212"],"name":"Bandar Selesa Jaya","lat":"1.50110000","lng":"103.65428000","type":"Stop"},{"route":["P203","P212"],"name":"Bandar Selesa Jaya (Tiang 2)","lat":"1.50068000","lng":"103.65120000","type":"Stop"},{"route":["P203"],"name":"Tmn Sutera Utama","lat":"1.51525000","lng":"103.66747000","type":"Stop"},{"route":["P203"],"name":"PPR Melana","lat":"1.50327600","lng":"103.67844300","type":"Stop"},{"route":["P203"],"name":"Taman Nusa Bestari Jaya (Bus Stop)","lat":"1.49871200","lng":"103.65567100","type":"Stop"},{"route":["P203"],"name":"SMK Taman Tun Aminah (Bus Stop)","lat":"1.51297700","lng":"103.65811400","type":"Stop"},{"route":["P201","P202","P211","P213","P214"],"name":"Terminal Taman U","lat":"1.53844000","lng":"103.62847000","type":"Stop"},{"route":["P201","P211"],"name":"Aeon Taman Universiti (ke Terminal)","lat":"1.54210000","lng":"103.62989000","type":"Stop"},{"route":["P211","P411"],"name":"Sjk(c) Kuo Kuang (ke kulai)","lat":"1.52790000","lng":"103.67057000","type":"Stop"},{"route":["P211","P411"],"name":"Sjk(c) Kuo Kuang (ke kulai) (Tiang 2)","lat":"1.52809000","lng":"103.67108000","type":"Stop"},{"route":["P211"],"name":"Tmn Sri Skudai (Bus Stop)","lat":"1.54908400","lng":"103.65429500","type":"Stop"},{"route":["P211"],"name":"Tmn Sri Skudai (Bus Stop) - Tiang 2","lat":"1.54859800","lng":"103.65411800","type":"Stop"},{"route":["P211"],"name":"Skudai Parade (Bus Stop)","lat":"1.54141300","lng":"103.65951900","type":"Stop"},{"route":["P211"],"name":"Taman Skudai, Skudai (Bus Stop) ~ Jalan Bertingkat Skudai arah JB (Bus Stop)","lat":"1.53497600","lng":"103.66480500","type":"Stop"},{"route":["P212"],"name":"Persiaran Perling 1, Tmn Perling","lat":"1.49484800","lng":"103.68439200","type":"Stop"},{"route":["P212"],"name":"Indah Utama Hadapan Indah 8\/15 ~ Persiaran Indah, Tmn Bkt Indah","lat":"1.47730300","lng":"103.65083900","type":"Stop"},{"route":["P212"],"name":"Petronas Persiaran Indah Utama, Tmn Bkt Indah","lat":"1.48422000","lng":"103.64861000","type":"Stop"},{"route":["P212"],"name":"Persiaran Indah Utama, Tmn Bkt Indah","lat":"1.48812000","lng":"103.65642000","type":"Stop"},{"route":["P212"],"name":"Taman Perling, Jalan Sungai Danga","lat":"1.47310500","lng":"103.67204500","type":"Stop"},{"route":["P212"],"name":"Surau Raudhatul Indah,Tmn Bkt Indah (Bus Stop)","lat":"1.47566100","lng":"103.66571200","type":"Stop"},{"route":["P212"],"name":"SMK Damai Jaya (Bus Stop)","lat":"1.50452800","lng":"103.64191100","type":"Stop"},{"route":["P212"],"name":"Persiaran Indah Utama (Bus Stop)","lat":"1.48775900","lng":"103.66118500","type":"Stop"},{"route":["P213"],"name":"Gelang Patah","lat":"1.45085000","lng":"103.59492000","type":"Stop"},{"route":["P213"],"name":"Gelang Patah (Tiang 2)","lat":"1.45077000","lng":"103.59385000","type":"Stop"},{"route":["P213"],"name":"Rumah Iskandar Malaysia","lat":"1.47714000","lng":"103.61474000","type":"Stop"},{"route":["P213"],"name":"Rumah Iskandar Malaysia (Tiang 2)","lat":"1.47735000","lng":"103.61505000","type":"Stop"},{"route":["P213"],"name":"Lima kedai to Skudai ~ Kg. Melayu Lima Kedai","lat":"1.50426000","lng":"103.62133000","type":"Stop"},{"route":["P213"],"name":"Kg. Melayu Lima Kedai (Tiang 2)","lat":"1.50413000","lng":"103.62189000","type":"Stop"},{"route":["P213","P214"],"name":"Mutiara Rini","lat":"1.51508000","lng":"103.63311000","type":"Stop"},{"route":["P213","P214"],"name":"Tesco Mutiara Rini","lat":"1.51488000","lng":"103.63352000","type":"Stop"},{"route":["P213"],"name":"Lima Kedai (Bus Stop)","lat":"1.49922100","lng":"103.61729500","type":"Stop"},{"route":["P213"],"name":"Lima Kedai Tiang 2 (Bus Stop)","lat":"1.50072700","lng":"103.61817600","type":"Stop"},{"route":["P213"],"name":"SMK Gelang Patah (Bus Stop)","lat":"1.44948500","lng":"103.59090600","type":"Stop"},{"route":["P214"],"name":"Terminal Gelang Patah","lat":"1.44656000","lng":"103.58969000","type":"Stop"},{"route":["P214"],"name":"Flat Taman Impian Emas","lat":"1.53410600","lng":"103.67203100","type":"Stop"},{"route":["P214"],"name":"SK Taman Impian Emas","lat":"1.53872800","lng":"103.68293700","type":"Stop"},{"route":["P214"],"name":"Taman Nesa (Bus Stop)","lat":"1.52822700","lng":"103.66181900","type":"Stop"},{"route":["P214"],"name":"Flat Taman Impian Emas (Bus Stop)","lat":"1.53285700","lng":"103.67148200","type":"Stop"},{"route":["P214"],"name":"Taman Bukit Gemilang","lat":"1.52657100","lng":"103.65319200","type":"Stop"},{"route":["P201"],"name":"Taman Pulai Indah","lat":"1.54362500","lng":"103.58337700","type":"Stop"},{"route":["P201"],"name":"Persiaran Pulai Indah","lat":"1.55160900","lng":"103.58068500","type":"Stop"},{"route":["P201"],"name":"SK Kangkar Pulai 2","lat":"1.55277400","lng":"103.58046300","type":"Stop"},{"route":["P201"],"name":"Jalan Pulai Harmoni 3 Bandar Baru Kangkar Pulai","lat":"1.55336100","lng":"103.58584600","type":"Stop"},{"route":["P201"],"name":"Flat Kangkar Pulai","lat":"1.55338900","lng":"103.58884700","type":"Stop"},{"route":["P201"],"name":"Bandar Kangkar Pulai, Jalan Persiaran Utama","lat":"1.55383100","lng":"103.58927700","type":"Stop"},{"route":["P201"],"name":"Jalan Kangkar Pulai, Kampung Melayu Kangkar Pulai","lat":"1.55717500","lng":"103.59353800","type":"Stop"},{"route":["P201"],"name":"Jalan Kangkar Pulai, berhampiran PETRONAS Kangkar Pulai","lat":"1.55796900","lng":"103.59496100","type":"Stop"},{"route":["P201"],"name":"Jalan Kangkar Pulai, berhampiran PETRONAS Kangkar Pulai","lat":"1.55808600","lng":"103.59486300","type":"Stop"},{"route":["P201"],"name":"Sri Pulai Perdana, Jalan Pulai Jaya 1\/1","lat":"1.56547800","lng":"103.59805100","type":"Stop"},{"route":["P201"],"name":"Skudai - Pontian Highway, Simpang Pesisir Pulai Jaya Utara 2","lat":"1.56661000","lng":"103.59925000","type":"Stop"},{"route":["P201"],"name":"Kampung Nesa,Jalan Skudai - Pontian","lat":"1.56667200","lng":"103.60570000","type":"Stop"},{"route":["P201"],"name":"Opposite Kampung Nesa,Jalan Skudai - Pontian","lat":"1.56642700","lng":"103.60589400","type":"Stop"},{"route":["P201"],"name":"Kampung Nesa Stop 2,Jalan Skudai - Pontian","lat":"1.56659600","lng":"103.60919600","type":"Stop"},{"route":["P201"],"name":"Taman Pulai Perdana,Jalan Skudai - Pontian","lat":"1.56557400","lng":"103.61174100","type":"Stop"},{"route":["P201"],"name":"Taman Teratai,Jalan Skudai - Pontian","lat":"1.56515800","lng":"103.61377600","type":"Stop"},{"route":["P201"],"name":"Taman Sri Pulai,Jalan Skudai - Pontian","lat":"1.56263500","lng":"103.61781400","type":"Stop"},{"route":["P201"],"name":"Opposite Taman Sri Pulai,Jalan Skudai - Pontian","lat":"1.56236900","lng":"103.61769900","type":"Stop"},{"route":["P201"],"name":"Taman Teratai,Jalan Rotan","lat":"1.57152000","lng":"103.61407100","type":"Stop"},{"route":["P201"],"name":"Taman Pulai Flora,Jalan Pulai","lat":"1.55060400","lng":"103.62423900","type":"Stop"},{"route":["P201"],"name":"Taman Pulai Utama,Jalan Perdagangan","lat":"1.54457300","lng":"103.62492700","type":"Stop"},{"route":["P201"],"name":"Pangsapuri Meranti,Jalan Pulai 19","lat":"1.54394200","lng":"103.62593400","type":"Stop"},{"route":["P201","P211"],"name":"Aeon Taman Universiti,Jalan Pendidikan","lat":"1.54231200","lng":"103.62968000","type":"Stop"},{"route":["P202","P213"],"name":"Gerai Jalan Kebangsaan, Taman Universiti","lat":"1.53567500","lng":"103.62815900","type":"Stop"},{"route":["P401"],"name":"Bandar Putra","lat":"1.65142000","lng":"103.62204000","type":"Stop"},{"route":["P401"],"name":"AEON Kulai","lat":"1.64031000","lng":"103.61899000","type":"Stop"},{"route":["P402"],"name":"Tmn Senai Jaya","lat":"1.61011000","lng":"103.66675000","type":"Stop"},{"route":["P402"],"name":"Tmn Senai Jaya (Tiang 2)","lat":"1.61027000","lng":"103.66689000","type":"Stop"},{"route":["P402"],"name":"Tmn Desa Idaman","lat":"1.63679000","lng":"103.68164000","type":"Stop"},{"route":["P402","P403","P411"],"name":"Senai","lat":"1.59976000","lng":"103.64492000","type":"Stop"},{"route":["P402","P403","P411"],"name":"Senai (Tiang 2)","lat":"1.60028000","lng":"103.64461000","type":"Stop"},{"route":["P403","P411"],"name":"SK Senai","lat":"1.59644000","lng":"103.64551000","type":"Stop"},{"route":["P403","P411"],"name":"SK Senai (tiang 2)","lat":"1.59584000","lng":"103.64541000","type":"Stop"},{"route":["P402","P403","P411"],"name":"Sepakat Jaya ke jb","lat":"1.59084000","lng":"103.64797000","type":"Stop"},{"route":["P403","P411"],"name":"Sepakat Jaya kulai (tiang 2)","lat":"1.59077000","lng":"103.64771000","type":"Stop"},{"route":["P401","P411","P412"],"name":"Terminal Kulai","lat":"1.66265000","lng":"103.59876000","type":"Stop"},{"route":["P411"],"name":"Arked Kulai","lat":"1.66134000","lng":"103.60361000","type":"Stop"},{"route":["P411"],"name":"Jln Kulai Besar","lat":"1.65073000","lng":"103.61133000","type":"Stop"},{"route":["P411"],"name":"SMK Kulai Besar","lat":"1.64542000","lng":"103.61576000","type":"Stop"},{"route":["P411"],"name":"Taman Pancasila Lebuhraya Senai","lat":"1.63574000","lng":"103.62993000","type":"Stop"},{"route":["P411"],"name":"TJ Mart Senai","lat":"1.63354000","lng":"103.63246000","type":"Stop"},{"route":["P412"],"name":"Tmn. Iris","lat":"1.65471000","lng":"103.59636000","type":"Stop"},{"route":["P412"],"name":"Tesco Kulai","lat":"1.66766000","lng":"103.57681000","type":"Stop"},{"route":["P412"],"name":"Kg Sri Paya","lat":"1.66803000","lng":"103.54292000","type":"Stop"},{"route":["P412"],"name":"Kelapa Sawit","lat":"1.67702000","lng":"103.52853000","type":"Stop"},{"route":["P412"],"name":"Tmn Scientex","lat":"1.68342000","lng":"103.51993000","type":"Stop"},{"route":["P412"],"name":"Tmn Manis","lat":"1.67985000","lng":"103.52409000","type":"Stop"},{"route":["P412"],"name":"Kg Sri Paya 2","lat":"1.66807000","lng":"103.54336000","type":"Stop"},{"route":["P412"],"name":"SMK Munsyi","lat":"1.66451000","lng":"103.59637000","type":"Stop"},{"route":["P302"],"name":"Tmn Bukit Dahlia","lat":"1.48123000","lng":"103.89811000","type":"Stop"},{"route":["P302"],"name":"Jalan Persiaran Scientex, Tmn Scientex","lat":"1.49625000","lng":"103.91294000","type":"Stop"},{"route":["P302"],"name":"Jalan Kenari, Tmn scientex","lat":"1.52091000","lng":"103.91624000","type":"Stop"},{"route":["P302"],"name":"Jalan Hamelia, Tmn Scientex Heliconia","lat":"1.51904000","lng":"103.91148000","type":"Stop"},{"route":["P303"],"name":"Tmn Kota Masai","lat":"1.48122000","lng":"103.90285000","type":"Stop"},{"route":["P303"],"name":"SK Kota Masai 3","lat":"1.48929000","lng":"103.92827000","type":"Stop"},{"route":["P303"],"name":"SMK Pasir Putih","lat":"1.47320400","lng":"103.93708300","type":"Stop"},{"route":["P303"],"name":"Tmn Tg. Puteri Resort","lat":"1.45397000","lng":"103.93618000","type":"Stop"},{"route":["P303"],"name":"Tmn Air Biru","lat":"1.45543000","lng":"103.91704000","type":"Stop"},{"route":["P303","P312"],"name":"Klinik Kesihatan Pasir Gudang","lat":"1.46413000","lng":"103.90683000","type":"Stop"},{"route":["P312"],"name":"Jalan Riang ~ Tmn Nusa Damai","lat":"1.50501000","lng":"103.90285000","type":"Stop"},{"route":["P312"],"name":"Persiaran Damai Simpang Sejahtera","lat":"1.48219600","lng":"103.94821200","type":"Stop"},{"route":["P313"],"name":"Simpang Felda Sg Tiram","lat":"1.58115000","lng":"103.89441000","type":"Stop"},{"route":["P313"],"name":"Sk Sungai Tiram","lat":"1.58484000","lng":"103.87896000","type":"Stop"},{"route":["P313"],"name":"Kg Mulia Sungai Tiram 492 Jln Sg Tiram","lat":"1.58809000","lng":"103.86012000","type":"Stop"},{"route":["P303","P314"],"name":"Tesco Kota Masai","lat":"1.48449351","lng":"103.93574640","type":"Stop"},{"route":["P314"],"name":"Jalan Ixora 4, ~ Bandar Bistari Perdana","lat":"1.50572638","lng":"103.95010780","type":"Stop"},{"route":["P314"],"name":"Sekolah Agama Dato' Hj Abdul Rahman Ahmad","lat":"1.52232450","lng":"103.93472350","type":"Stop"},{"route":["P314","P302"],"name":"Taman Desa Rakyat Perdana","lat":"1.51377648","lng":"103.92245690","type":"Stop"},{"route":["P314"],"name":"Taman Cahaya Masai","lat":"1.50711857","lng":"103.92222980","type":"Stop"},{"route":["P201"],"name":"U Mall, Tmn Pulai Utama","lat":"1.54722000","lng":"103.62244000","type":"Stop"},{"route":["P201"],"name":"Tmn Pulai Perdana","lat":"1.56112000","lng":"103.61677000","type":"Stop"},{"route":["P201"],"name":"Jalan Teratai, Tmn Teratai","lat":"1.56777000","lng":"103.61303000","type":"Stop"},{"route":["P201"],"name":"Jln Palas 5, Tmn Teratai","lat":"1.57053000","lng":"103.61225000","type":"Stop"},{"route":["P201"],"name":"Tmn Sri Pulai","lat":"1.56858000","lng":"103.61893000","type":"Stop"},{"route":["P202"],"name":"Tmn Skudai Baru","lat":"1.51010000","lng":"103.64211000","type":"Stop"},{"route":["P202","P213","P214"],"name":"SK Tmn Universiti 4","lat":"1.53440000","lng":"103.62709000","type":"Stop"},{"route":["P202","P213","P214"],"name":"SK Tmn Universiti 4 (tiang 2)","lat":"1.53429000","lng":"103.62717000","type":"Stop"},{"route":["P202"],"name":"Jalan Tun Fatimah, Tmn Ungku Tun Aminah","lat":"1.51664000","lng":"103.65417000","type":"Stop"},{"route":["P202"],"name":"Jalan Tun Aminah, Tmn Ungku Tun Aminah","lat":"1.52248000","lng":"103.66344000","type":"Stop"},{"route":["P203"],"name":"PPR Melana Indah","lat":"1.57105000","lng":"103.80031000","type":"Stop"},{"route":["P203","P212"],"name":"Bandar Selesa Jaya","lat":"1.50110000","lng":"103.65428000","type":"Stop"},{"route":["P203","P212"],"name":"Bandar Selesa Jaya (Tiang 2)","lat":"1.50068000","lng":"103.65120000","type":"Stop"},{"route":["P203"],"name":"Hab Selesa Jaya","lat":"1.49209000","lng":"103.63605000","type":"Stop"},{"route":["P203"],"name":"Tmn Sutera Utama","lat":"1.51525000","lng":"103.66747000","type":"Stop"},{"route":["P211"],"name":"Terminal Taman U","lat":"1.53844000","lng":"103.62847000","type":"Stop"},{"route":["P201","P211"],"name":"Aeon Taman Universiti (ke Terminal)","lat":"1.54210000","lng":"103.62989000","type":"Stop"},{"route":["P211","P411"],"name":"Sjk(c) Kuo Kuang (ke kulai)","lat":"1.52790000","lng":"103.67057000","type":"Stop"},{"route":["P211","P411"],"name":"Sjk(c) Kuo Kuang (ke kulai) (Tiang 2)","lat":"1.52809000","lng":"103.67108000","type":"Stop"},{"route":["P212"],"name":"Persiaran Perling 1, Tmn Perling","lat":"1.49484800","lng":"103.68439200","type":"Stop"},{"route":["P212"],"name":"Indah Utama Hadapan Indah 8\/15 ~ Persiaran Indah, Tmn Bkt Indah","lat":"1.47730300","lng":"103.65083900","type":"Stop"},{"route":["P212"],"name":"Petronas Persiaran Indah Utama, Tmn Bkt Indah","lat":"1.48422000","lng":"103.64861000","type":"Stop"},{"route":["P212"],"name":"Persiaran Indah Utama, Tmn Bkt Indah","lat":"1.48812000","lng":"103.65642000","type":"Stop"},{"route":["P213"],"name":"Gelang Patah","lat":"1.45085000","lng":"103.59492000","type":"Stop"},{"route":["P213"],"name":"Gelang Patah (Tiang 2)","lat":"1.45077000","lng":"103.59385000","type":"Stop"},{"route":["P213"],"name":"Rumah Iskandar Malaysia","lat":"1.47714000","lng":"103.61474000","type":"Stop"},{"route":["P213"],"name":"Rumah Iskandar Malaysia (Tiang 2)","lat":"1.47735000","lng":"103.61505000","type":"Stop"},{"route":["P213"],"name":"Lima kedai to Skudai ~ Kg. Melayu Lima Kedai","lat":"1.50426000","lng":"103.62133000","type":"Stop"},{"route":["P213"],"name":"Kg. Melayu Lima Kedai (Tiang 2)","lat":"1.50413000","lng":"103.62189000","type":"Stop"},{"route":["P213","P214"],"name":"Mutiara Rini","lat":"1.51508000","lng":"103.63311000","type":"Stop"},{"route":["P213","P214"],"name":"Tesco Mutiara Rini","lat":"1.51488000","lng":"103.63352000","type":"Stop"},{"route":["P214"],"name":"Flat Taman Impian Emas","lat":"1.53410600","lng":"103.67203100","type":"Stop"},{"route":["P214"],"name":"SK Taman Impian Emas","lat":"1.53872800","lng":"103.68293700","type":"Stop"},{"route":["P101"],"name":"Tahfiz masjid nong chik","lat":"1.46873000","lng":"103.73679000","type":"Stop"},{"route":["P101"],"name":"Yayasan Warisan Johor","lat":"1.46209000","lng":"103.74076000","type":"Stop"},{"route":["P101"],"name":"Hospital Sultanah Aminah","lat":"1.45745000","lng":"103.74675000","type":"Stop"},{"route":["P101"],"name":"Menara MSC Cyberport","lat":"1.46218000","lng":"103.77201000","type":"Stop"},{"route":["P101"],"name":"Bukit Saujana","lat":"1.47292000","lng":"103.74886000","type":"Stop"},{"route":["P102","P103"],"name":"PPR sri stulang","lat":"1.49512000","lng":"103.78931000","type":"Stop"},{"route":["P102"],"name":"Flat Stulang Laut","lat":"1.47118000","lng":"103.78119000","type":"Stop"},{"route":["P102"],"name":"KFC Stulang Laut","lat":"1.46705000","lng":"103.77893000","type":"Stop"},{"route":["P120","P103","P106"],"name":"Taman Sri Bayu (petronas)","lat":"1.49715000","lng":"103.78948000","type":"Stop"},{"route":["P103"],"name":"Larkin Perdana","lat":"1.50192000","lng":"103.74809000","type":"Stop"},{"route":["P103"],"name":"Giant Tmn Suria","lat":"1.50415000","lng":"103.76138000","type":"Stop"},{"route":["P103"],"name":"Hospital Columbia","lat":"1.50141000","lng":"103.76514000","type":"Stop"},{"route":["P103","P102"],"name":"Midvalley Southkey","lat":"1.50064600","lng":"103.77656400","type":"Stop"},{"route":["P104"],"name":"Tmn Tasek","lat":"1.48886000","lng":"103.72759000","type":"Stop"},{"route":["P104"],"name":"SK Bandar UDA 2","lat":"1.49474000","lng":"103.72012000","type":"Stop"},{"route":["P104"],"name":"Angsana","lat":"1.49601000","lng":"103.70766000","type":"Stop"},{"route":["P104"],"name":"Petronas Tmn Cempaka","lat":"1.51662000","lng":"103.70133000","type":"Stop"},{"route":["P104"],"name":"Surau Tmn Cempaka","lat":"1.51716000","lng":"103.69941000","type":"Stop"},{"route":["P106"],"name":"Aeon Permas","lat":"1.49604000","lng":"103.81635000","type":"Stop"},{"route":["P106","P301"],"name":"Tesco Plentong","lat":"1.52077000","lng":"103.81521000","type":"Stop"},{"route":["P111"],"name":"SMK Tmn Daya","lat":"1.55258000","lng":"103.75422000","type":"Stop"},{"route":["P111"],"name":"SMK Tmn Daya 3","lat":"1.56494000","lng":"103.76255000","type":"Stop"},{"route":["P111"],"name":"Hospital Sultan Ismail","lat":"1.54603000","lng":"103.78914000","type":"Stop"},{"route":["P111"],"name":"Aeon Tebrau","lat":"1.55176000","lng":"103.79659000","type":"Stop"},{"route":["P112"],"name":"Tmn Desa Harmoni","lat":"1.51504000","lng":"103.79346000","type":"Stop"},{"route":["P112","P113"],"name":"Kolej Vokasional ERT Azizah","lat":"1.50188000","lng":"103.73541000","type":"Stop"}]}